{"cityList":[{"cities":[{"lon":"116.408198","cityName":"北京","cityNo":"10","lat":"39.904667000000003"},{"lon":"113.26442299999999","cityName":"广州","cityNo":"20","lat":"23.129075"},{"lon":"121.472916","cityName":"上海","cityNo":"21","lat":"31.230708"},{"lon":"114.057818","cityName":"深圳","cityNo":"755","lat":"22.543447"}],"section":"热门城市"},{"cities":[{"lon":"","cityName":"安庆","cityNo":"556","lat":""},{"lon":"","cityName":"鞍山","cityNo":"412","lat":""},{"lon":"","cityName":"安阳","cityNo":"372","lat":""},{"lon":"","cityName":"澳门","cityNo":"853","lat":""},{"lon":"","cityName":"百色","cityNo":"776","lat":""},{"lon":"","cityName":"白山","cityNo":"439","lat":""},{"lon":"","cityName":"巴黎","cityNo":"3311","lat":""},{"lon":"","cityName":"保定","cityNo":"312","lat":""},{"lon":"","cityName":"宝鸡","cityNo":"917","lat":""},{"lon":"","cityName":"保山","cityNo":"875","lat":""},{"lon":"109.840385","cityName":"包头","cityNo":"472","lat":"40.657446999999998"},{"lon":"","cityName":"巴塞罗那","cityNo":"3493","lat":""},{"lon":"","cityName":"北海","cityNo":"779","lat":""},{"lon":"116.408198","cityName":"北京","cityNo":"10","lat":"39.904667000000003"},{"lon":"","cityName":"蚌埠","cityNo":"552","lat":""},{"lon":"","cityName":"本溪","cityNo":"414","lat":""},{"lon":"","cityName":"滨州","cityNo":"543","lat":""},{"lon":"","cityName":"柏林","cityNo":"4930","lat":""},{"lon":"","cityName":"亳州","cityNo":"558","lat":""},{"lon":"","cityName":"沧州","cityNo":"317","lat":""},{"lon":"125.3245","cityName":"长春","cityNo":"431","lat":"43.886840999999997"},{"lon":"","cityName":"常德","cityNo":"736","lat":""},{"lon":"112.938827","cityName":"长沙","cityNo":"731","lat":"28.228528000000001"},{"lon":"","cityName":"长治","cityNo":"355","lat":""},{"lon":"119.97445399999999","cityName":"常州","cityNo":"519","lat":"31.810077"},{"lon":"","cityName":"朝阳","cityNo":"421","lat":""},{"lon":"","cityName":"潮州","cityNo":"768","lat":""},{"lon":"104.064857","cityName":"成都","cityNo":"28","lat":"30.658601999999998"},{"lon":"","cityName":"郴州","cityNo":"735","lat":""},{"lon":"","cityName":"赤峰","cityNo":"476","lat":""},{"lon":"106.55123399999999","cityName":"重庆","cityNo":"23","lat":"29.562685999999999"},{"lon":"","cityName":"滁州","cityNo":"550","lat":""},{"lon":"","cityName":"大阪","cityNo":"8106","lat":""},{"lon":"","cityName":"大理","cityNo":"872","lat":""},{"lon":"121.614771","cityName":"大连","cityNo":"411","lat":"38.913778999999998"},{"lon":"","cityName":"丹东","cityNo":"415","lat":""},{"lon":"","cityName":"大庆","cityNo":"459","lat":""},{"lon":"","cityName":"大同","cityNo":"352","lat":""},{"lon":"","cityName":"达州","cityNo":"818","lat":""},{"lon":"","cityName":"德阳","cityNo":"838","lat":""},{"lon":"","cityName":"德州","cityNo":"534","lat":""},{"lon":"","cityName":"地球","cityNo":"999999","lat":""},{"lon":"113.751766","cityName":"东莞","cityNo":"769","lat":"23.020536"},{"lon":"","cityName":"东京","cityNo":"8103","lat":""},{"lon":"","cityName":"东营","cityNo":"546","lat":""},{"lon":"","cityName":"多伦多","cityNo":"1416","lat":""},{"lon":"","cityName":"鄂尔多斯","cityNo":"477","lat":""},{"lon":"","cityName":"鄂州","cityNo":"711","lat":""},{"lon":"113.12131599999999","cityName":"佛山","cityNo":"757","lat":"23.021720999999999"},{"lon":"","cityName":"抚顺","cityNo":"2400","lat":""},{"lon":"","cityName":"阜新","cityNo":"418","lat":""},{"lon":"","cityName":"富阳","cityNo":"5711","lat":""},{"lon":"","cityName":"抚州","cityNo":"794","lat":""},{"lon":"119.29657899999999","cityName":"福州","cityNo":"591","lat":"26.074286000000001"},{"lon":"","cityName":"赣州","cityNo":"797","lat":""},{"lon":"","cityName":"广安","cityNo":"826","lat":""},{"lon":"","cityName":"广元","cityNo":"839","lat":""},{"lon":"113.26442299999999","cityName":"广州","cityNo":"20","lat":"23.129075"},{"lon":"","cityName":"贵港","cityNo":"7751","lat":""},{"lon":"","cityName":"桂林","cityNo":"773","lat":""},{"lon":"","cityName":"贵阳","cityNo":"851","lat":""},{"lon":"","cityName":"固原","cityNo":"954","lat":""}],"section":"A-G"},{"cities":[{"lon":"126.642464","cityName":"哈尔滨","cityNo":"451","lat":"45.756967000000003"},{"lon":"","cityName":"海口","cityNo":"898","lat":""},{"lon":"120.155249","cityName":"杭州","cityNo":"571","lat":"30.273496999999999"},{"lon":"","cityName":"汉中","cityNo":"916","lat":""},{"lon":"","cityName":"鹤壁","cityNo":"392","lat":""},{"lon":"117.28698300000001","cityName":"合肥","cityNo":"551","lat":"31.865779"},{"lon":"","cityName":"衡水","cityNo":"318","lat":""},{"lon":"","cityName":"衡阳","cityNo":"734","lat":""},{"lon":"","cityName":"河源","cityNo":"762","lat":""},{"lon":"","cityName":"贺州","cityNo":"7741","lat":""},{"lon":"","cityName":"红河","cityNo":"873","lat":""},{"lon":"","cityName":"淮安","cityNo":"517","lat":""},{"lon":"","cityName":"淮北","cityNo":"561","lat":""},{"lon":"","cityName":"怀化","cityNo":"745","lat":""},{"lon":"","cityName":"淮南","cityNo":"554","lat":""},{"lon":"","cityName":"黄冈","cityNo":"713","lat":""},{"lon":"","cityName":"黄山","cityNo":"559","lat":""},{"lon":"","cityName":"黄石","cityNo":"714","lat":""},{"lon":"","cityName":"华盛顿","cityNo":"1202","lat":""},{"lon":"111.748847","cityName":"呼和浩特","cityNo":"471","lat":"40.842309999999998"},{"lon":"","cityName":"惠州","cityNo":"752","lat":""},{"lon":"","cityName":"葫芦岛","cityNo":"429","lat":""},{"lon":"","cityName":"湖州","cityNo":"572","lat":""},{"lon":"","cityName":"佳木斯","cityNo":"454","lat":""},{"lon":"","cityName":"吉安","cityNo":"796","lat":""},{"lon":"","cityName":"建德","cityNo":"5710","lat":""},{"lon":"","cityName":"江门","cityNo":"7501","lat":""},{"lon":"120.758543","cityName":"嘉兴","cityNo":"573","lat":"30.753924000000001"},{"lon":"","cityName":"揭阳","cityNo":"663","lat":""},{"lon":"","cityName":"吉林","cityNo":"432","lat":""},{"lon":"","cityName":"吉隆坡","cityNo":"6031","lat":""},{"lon":"116.99491500000001","cityName":"济南","cityNo":"531","lat":"36.665281999999998"},{"lon":"","cityName":"金昌","cityNo":"935","lat":""},{"lon":"","cityName":"晋城","cityNo":"356","lat":""},{"lon":"","cityName":"景德镇","cityNo":"798","lat":""},{"lon":"","cityName":"荆门","cityNo":"724","lat":""},{"lon":"","cityName":"荆州","cityNo":"716","lat":""},{"lon":"","cityName":"金华","cityNo":"579","lat":""},{"lon":"","cityName":"济宁","cityNo":"537","lat":""},{"lon":"","cityName":"晋江","cityNo":"5950","lat":""},{"lon":"","cityName":"晋中","cityNo":"354","lat":""},{"lon":"","cityName":"锦州","cityNo":"416","lat":""},{"lon":"","cityName":"九江","cityNo":"792","lat":""},{"lon":"","cityName":"旧金山","cityNo":"1415","lat":""},{"lon":"","cityName":"济州","cityNo":"8264","lat":""},{"lon":"","cityName":"开封","cityNo":"378","lat":""},{"lon":"","cityName":"昆明","cityNo":"871","lat":""},{"lon":"","cityName":"昆山","cityNo":"5120","lat":""},{"lon":"","cityName":"莱芜","cityNo":"634","lat":""},{"lon":"","cityName":"廊坊","cityNo":"316","lat":""},{"lon":"103.834377","cityName":"兰州","cityNo":"931","lat":"36.061255000000003"},{"lon":"","cityName":"拉萨","cityNo":"891","lat":""},{"lon":"","cityName":"乐山","cityNo":"833","lat":""},{"lon":"","cityName":"连云港","cityNo":"518","lat":""},{"lon":"","cityName":"聊城","cityNo":"635","lat":""},{"lon":"","cityName":"辽阳","cityNo":"419","lat":""},{"lon":"","cityName":"临沧","cityNo":"883","lat":""},{"lon":"","cityName":"临沂","cityNo":"539","lat":""},{"lon":"","cityName":"丽水","cityNo":"578","lat":""},{"lon":"","cityName":"六安","cityNo":"564","lat":""},{"lon":"","cityName":"柳州","cityNo":"772","lat":""},{"lon":"","cityName":"龙岩","cityNo":"597","lat":""},{"lon":"","cityName":"娄底","cityNo":"738","lat":""},{"lon":"","cityName":"伦敦","cityNo":"44020","lat":""},{"lon":"","cityName":"罗马","cityNo":"3906","lat":""},{"lon":"","cityName":"洛杉矶","cityNo":"1213","lat":""},{"lon":"","cityName":"洛阳","cityNo":"379","lat":""},{"lon":"","cityName":"泸州","cityNo":"830","lat":""},{"lon":"","cityName":"吕梁","cityNo":"358","lat":""},{"lon":"","cityName":"马鞍山","cityNo":"555","lat":""},{"lon":"","cityName":"马德里","cityNo":"3491","lat":""},{"lon":"","cityName":"曼谷","cityNo":"6621","lat":""},{"lon":"","cityName":"满洲里","cityNo":"470","lat":""},{"lon":"","cityName":"茂名","cityNo":"668","lat":""},{"lon":"","cityName":"眉山","cityNo":"283","lat":""},{"lon":"","cityName":"梅州","cityNo":"753","lat":""},{"lon":"104.741274","cityName":"绵阳","cityNo":"816","lat":"31.463377000000001"},{"lon":"","cityName":"墨尔本","cityNo":"6103","lat":""},{"lon":"","cityName":"莫斯科","cityNo":"7495","lat":""},{"lon":"","cityName":"牡丹江","cityNo":"453","lat":""},{"lon":"","cityName":"慕尼黑","cityNo":"8949","lat":""},{"lon":"115.892151","cityName":"南昌","cityNo":"791","lat":"28.676493000000001"},{"lon":"","cityName":"南充","cityNo":"817","lat":""},{"lon":"118.796468","cityName":"南京","cityNo":"25","lat":"32.058365000000002"},{"lon":"108.36554599999999","cityName":"南宁","cityNo":"771","lat":"22.818012"},{"lon":"120.894324","cityName":"南通","cityNo":"513","lat":"31.979997000000001"},{"lon":"","cityName":"内江","cityNo":"832","lat":""},{"lon":"","cityName":"纽约","cityNo":"1212","lat":""},{"lon":"121.54398999999999","cityName":"宁波","cityNo":"574","lat":"29.868335999999999"},{"lon":"","cityName":"宁德","cityNo":"593","lat":""}],"section":"H-N"},{"cities":[{"lon":"","cityName":"盘锦","cityNo":"427","lat":""},{"lon":"","cityName":"攀枝花","cityNo":"812","lat":""},{"lon":"","cityName":"平凉","cityNo":"933","lat":""},{"lon":"","cityName":"萍乡","cityNo":"799","lat":""},{"lon":"","cityName":"普洱","cityNo":"879","lat":""},{"lon":"","cityName":"莆田","cityNo":"594","lat":""},{"lon":"120.38277100000001","cityName":"青岛","cityNo":"532","lat":"36.066347999999998"},{"lon":"","cityName":"庆阳","cityNo":"934","lat":""},{"lon":"","cityName":"清远","cityNo":"763","lat":""},{"lon":"","cityName":"秦皇岛","cityNo":"335","lat":""},{"lon":"","cityName":"钦州","cityNo":"777","lat":""},{"lon":"","cityName":"齐齐哈尔","cityNo":"452","lat":""},{"lon":"118.587114","cityName":"泉州","cityNo":"595","lat":"24.907398000000001"},{"lon":"","cityName":"曲靖","cityNo":"874","lat":""},{"lon":"","cityName":"衢州","cityNo":"570","lat":""},{"lon":"","cityName":"日照","cityNo":"633","lat":""},{"lon":"","cityName":"三明","cityNo":"598","lat":""},{"lon":"","cityName":"三亚","cityNo":"8980","lat":""},{"lon":"121.472916","cityName":"上海","cityNo":"21","lat":"31.230708"},{"lon":"","cityName":"上饶","cityNo":"793","lat":""},{"lon":"","cityName":"汕头","cityNo":"754","lat":""},{"lon":"","cityName":"汕尾","cityNo":"660","lat":""},{"lon":"","cityName":"韶关","cityNo":"751","lat":""},{"lon":"120.58610899999999","cityName":"绍兴","cityNo":"575","lat":"29.995761999999999"},{"lon":"","cityName":"邵阳","cityNo":"739","lat":""},{"lon":"","cityName":"双鸭山","cityNo":"469","lat":""},{"lon":"","cityName":"沈阳","cityNo":"24","lat":""},{"lon":"114.057818","cityName":"深圳","cityNo":"755","lat":"22.543447"},{"lon":"","cityName":"石家庄","cityNo":"311","lat":""},{"lon":"","cityName":"十堰","cityNo":"719","lat":""},{"lon":"","cityName":"首尔","cityNo":"8202","lat":""},{"lon":"","cityName":"寿光","cityNo":"5360","lat":""},{"lon":"","cityName":"朔州","cityNo":"349","lat":""},{"lon":"","cityName":"四平","cityNo":"434","lat":""},{"lon":"","cityName":"松原","cityNo":"438","lat":""},{"lon":"","cityName":"绥化","cityNo":"455","lat":""},{"lon":"","cityName":"遂宁","cityNo":"825","lat":""},{"lon":"","cityName":"随州","cityNo":"722","lat":""},{"lon":"","cityName":"宿迁","cityNo":"527","lat":""},{"lon":"120.58558600000001","cityName":"苏州","cityNo":"512","lat":"31.297778999999998"},{"lon":"","cityName":"泰安","cityNo":"538","lat":""},{"lon":"","cityName":"台湾","cityNo":"886","lat":""},{"lon":"","cityName":"台山","cityNo":"750","lat":""},{"lon":"112.550737","cityName":"太原","cityNo":"351","lat":"37.870553999999998"},{"lon":"","cityName":"泰州","cityNo":"523","lat":""},{"lon":"","cityName":"台州","cityNo":"576","lat":""},{"lon":"","cityName":"唐山","cityNo":"315","lat":""},{"lon":"117.21503","cityName":"天津","cityNo":"22","lat":"39.120876000000003"},{"lon":"","cityName":"天水","cityNo":"938","lat":""},{"lon":"","cityName":"铁岭","cityNo":"241","lat":""},{"lon":"","cityName":"通化","cityNo":"435","lat":""},{"lon":"","cityName":"通辽","cityNo":"475","lat":""}],"section":"O-T"},{"cities":[{"lon":"119.161929","cityName":"潍坊","cityNo":"536","lat":"36.706823999999997"},{"lon":"122.12042","cityName":"威海","cityNo":"631","lat":"37.513067999999997"},{"lon":"","cityName":"渭南","cityNo":"913","lat":""},{"lon":"","cityName":"温哥华","cityNo":"1604","lat":""},{"lon":"120.699355","cityName":"温州","cityNo":"577","lat":"27.994243000000001"},{"lon":"114.305172","cityName":"武汉","cityNo":"27","lat":"30.593088000000002"},{"lon":"","cityName":"芜湖","cityNo":"553","lat":""},{"lon":"87.617298000000005","cityName":"乌鲁木齐","cityNo":"991","lat":"43.825665999999998"},{"lon":"","cityName":"武威","cityNo":"9351","lat":""},{"lon":"120.303027","cityName":"无锡","cityNo":"510","lat":"31.566147999999998"},{"lon":"","cityName":"梧州","cityNo":"774","lat":""},{"lon":"118.08938999999999","cityName":"厦门","cityNo":"592","lat":"24.479614999999999"},{"lon":"108.944265","cityName":"西安","cityNo":"29","lat":"34.264879999999998"},{"lon":"","cityName":"香港","cityNo":"852","lat":""},{"lon":"","cityName":"湘潭","cityNo":"7312","lat":""},{"lon":"","cityName":"襄阳","cityNo":"710","lat":""},{"lon":"","cityName":"咸宁","cityNo":"715","lat":""},{"lon":"","cityName":"咸阳","cityNo":"910","lat":""},{"lon":"","cityName":"孝感","cityNo":"712","lat":""},{"lon":"","cityName":"邢台","cityNo":"319","lat":""},{"lon":"","cityName":"西宁","cityNo":"971","lat":""},{"lon":"","cityName":"新加坡","cityNo":"65","lat":""},{"lon":"","cityName":"新乡","cityNo":"373","lat":""},{"lon":"","cityName":"信阳","cityNo":"376","lat":""},{"lon":"","cityName":"新余","cityNo":"790","lat":""},{"lon":"","cityName":"西雅图","cityNo":"1206","lat":""},{"lon":"","cityName":"许昌","cityNo":"374","lat":""},{"lon":"","cityName":"徐州","cityNo":"516","lat":""},{"lon":"","cityName":"雅安","cityNo":"835","lat":""},{"lon":"","cityName":"盐城","cityNo":"515","lat":""},{"lon":"","cityName":"阳江","cityNo":"662","lat":""},{"lon":"","cityName":"阳泉","cityNo":"353","lat":""},{"lon":"119.412854","cityName":"扬州","cityNo":"514","lat":"32.394236999999997"},{"lon":"121.39138199999999","cityName":"烟台","cityNo":"535","lat":"37.539296999999998"},{"lon":"","cityName":"宜宾","cityNo":"831","lat":""},{"lon":"111.28647100000001","cityName":"宜昌","cityNo":"717","lat":"30.691967000000002"},{"lon":"","cityName":"伊春","cityNo":"458","lat":""},{"lon":"","cityName":"宜春","cityNo":"795","lat":""},{"lon":"","cityName":"银川","cityNo":"951","lat":""},{"lon":"","cityName":"营口","cityNo":"417","lat":""},{"lon":"","cityName":"鹰潭","cityNo":"701","lat":""},{"lon":"","cityName":"益阳","cityNo":"737","lat":""},{"lon":"","cityName":"仪征","cityNo":"5140","lat":""},{"lon":"","cityName":"岳阳","cityNo":"730","lat":""},{"lon":"","cityName":"玉林","cityNo":"775","lat":""},{"lon":"","cityName":"榆林","cityNo":"912","lat":""},{"lon":"","cityName":"运城","cityNo":"359","lat":""},{"lon":"","cityName":"云浮","cityNo":"766","lat":""},{"lon":"","cityName":"玉溪","cityNo":"877","lat":""},{"lon":"","cityName":"枣庄","cityNo":"632","lat":""},{"lon":"","cityName":"张家界","cityNo":"744","lat":""},{"lon":"","cityName":"张家口","cityNo":"313","lat":""},{"lon":"","cityName":"漳州","cityNo":"596","lat":""},{"lon":"","cityName":"湛江","cityNo":"759","lat":""},{"lon":"","cityName":"肇庆","cityNo":"758","lat":""},{"lon":"113.624863","cityName":"郑州","cityNo":"371","lat":"34.747284999999998"},{"lon":"","cityName":"镇江","cityNo":"511","lat":""},{"lon":"","cityName":"中山","cityNo":"760","lat":""},{"lon":"","cityName":"中卫","cityNo":"955","lat":""},{"lon":"","cityName":"周口","cityNo":"394","lat":""},{"lon":"","cityName":"舟山","cityNo":"580","lat":""},{"lon":"","cityName":"珠海","cityNo":"756","lat":""},{"lon":"","cityName":"株洲","cityNo":"7311","lat":""},{"lon":"118.055007","cityName":"淄博","cityNo":"533","lat":"36.813496999999998"},{"lon":"","cityName":"自贡","cityNo":"813","lat":""},{"lon":"","cityName":"资阳","cityNo":"281","lat":""},{"lon":"","cityName":"遵义","cityNo":"8511","lat":""}],"section":"U-Z"}],"respCode":"1000","respMsg":"操作成功"}